[
  {
    "id": "6c84fb90-12c4-11e1-840d-7b25c5ee775a",
    "name": "Papelaria Criativa",
    "slug": "papelaria-criativa",
    "address": "Rua das Artes, 123",
    "city": "Lisboa",
    "latitude": 38.722252,
    "longitude": -9.139337,
    "accepted": true
  },
  {
    "id": "6c84fb90-12c4-11e1-840d-7b25c5ee775b",
    "name": "Bomba de Gasolina Central",
    "slug": "bomba-de-gasolina-central",
    "address": "Avenida Principal, 456",
    "city": "Porto",
    "latitude": 41.14961,
    "longitude": -8.61099,
    "accepted": true
  },
  {
    "id": "6c84fb90-12c4-11e1-840d-7b25c5ee775c",
    "name": "Loja de Suprimentos",
    "slug": "loja-de-suprimentos",
    "address": "Rua dos Materiais, 789",
    "city": "Lisboa",
    "latitude": 38.731128,
    "longitude": -9.13751,
    "accepted": true
  },
  {
    "id": "6c84fb90-12c4-11e1-840d-7b25c5ee775d",
    "name": "Posto Express",
    "slug": "posto-express",
    "address": "Estrada Central, 101",
    "city": "Porto",
    "latitude": 41.15109,
    "longitude": -8.61208,
    "accepted": false
  },
  {
    "id": "6c84fb90-12c4-11e1-840d-7b25c5ee775e",
    "name": "PickUp Point Rápido",
    "slug": "pick-up-point-rapido",
    "address": "Avenida dos Serviços, 222",
    "city": "Lisboa",
    "latitude": 38.724526,
    "longitude": -9.141745,
    "accepted": false
  },
  {
    "id": "6c84fb90-12c4-11e1-840d-7b25c5ee775f",
    "name": "Loja de Artesanato",
    "slug": "loja-de-artesanato",
    "address": "Rua das Belas Artes, 333",
    "city": "Aveiro",
    "latitude": 40.640063,
    "longitude": -8.653117,
    "accepted": true
  },
  {
    "id": "6c84fb90-12c4-11e1-840d-7b25c5ee7760",
    "name": "Posto de Recolha Fácil",
    "slug": "posto-de-recolha-facil",
    "address": "Avenida dos Serviços, 444",
    "city": "Porto",
    "latitude": 41.156149,
    "longitude": -8.629574,
    "accepted": true
  },
  {
    "id": "6c84fb90-12c4-11e1-840d-7b25c5ee7761",
    "name": "Loja de Arte Moderna",
    "slug": "loja-de-arte-moderna",
    "address": "Rua das Cores, 666",
    "city": "Aveiro",
    "latitude": 40.637177,
    "longitude": -8.651212,
    "accepted": true
  },
  {
    "id": "6c84fb90-12c4-11e1-840d-7b25c5ee7762",
    "name": "Bomba de Gasolina Norte",
    "slug": "bomba-de-gasolina-norte",
    "address": "Avenida Central, 777",
    "city": "Lisboa",
    "latitude": 38.71952,
    "longitude": -9.135587,
    "accepted": false
  }
]