[
  {
    "id": "6c84fb90-12c4-11e1-840d-7b25c5ee775a",
    "name": "Papelaria Alegria",
    "slugs": "papelaria-alegria",
    "address": "Rua das Flores, 123",
    "city": "Aveiro",
    "lat": -23.5505199,
    "lng": -46.6333094
  },
  {
    "id": "6c84fb90-12c4-11e1-840d-7b25c5ee775b",
    "name": "Bazar dos Sonhos",
    "slugs": "bazar-dos-sonhos",
    "address": "Avenida Central, 456",
    "city": "São João da Madeira",
    "lat": -23.5505199,
    "lng": -46.6333094
  },
  {
    "id": "6c84fb90-12c4-11e1-840d-7b25c5ee775c",
    "name": "Loja Criativa",
    "slugs": "loja-criativa",
    "address": "Rua do Comércio, 789",
    "city": "São Paulo",
    "lat": -23.5505199,
    "lng": -46.6333094
  },
  {
    "id": "6c84fb90-12c4-11e1-840d-7b25c5ee775d",
    "name": "Papelaria Encantada",
    "slugs": "papelaria-encantada",
    "address": "Avenida dos Artistas, 101",
    "city": "São José dos Campos",
    "lat": -23.5505199,
    "lng": -46.6333094
  },
  {
    "id": "6c84fb90-12c4-11e1-840d-7b25c5ee7752",
    "name": "JUST BOOKS",
    "slugs": "just-books",
    "address": "Rua das Margaridas, 123",
    "city": "São Luís",
    "lat": -23.5505199,
    "lng": -46.6333094
  }
]